{
  "data_district_wise_injury_death": [
    {
      "district": "Bagerhat",
      "total_cases": 99,
      "total_deaths": 8,
      "verified_deaths": 8,
      "unverified_deaths": 0,
      "total_injuries": 91,
      "verified_injuries": 91,
      "unverified_injuries": 0,
      "lat": 22.6675,
      "lng": 89.7953,
      "type": "Multiple Casualties"
    },
    {
      "district": "Bandarban",
      "total_cases": 3,
      "total_deaths": 0,
      "verified_deaths": 0,
      "unverified_deaths": 0,
      "total_injuries": 3,
      "verified_injuries": 3,
      "unverified_injuries": 0,
      "lat": 22.2042,
      "lng": 92.2194,
      "type": "Multiple Casualties"
    },
    {
      "district": "Barguna",
      "total_cases": 127,
      "total_deaths": 10,
      "verified_deaths": 10,
      "unverified_deaths": 0,
      "total_injuries": 117,
      "verified_injuries": 112,
      "unverified_injuries": 5,
      "lat": 22.1583,
      "lng": 90.125,
      "type": "Multiple Casualties"
    },
    {
      "district": "Barishal",
      "total_cases": 360,
      "total_deaths": 30,
      "verified_deaths": 30,
      "unverified_deaths": 0,
      "total_injuries": 330,
      "verified_injuries": 329,
      "unverified_injuries": 1,
      "lat": 22.7,
      "lng": 90.3667,
      "type": "Multiple Casualties"
    },
    {
      "district": "Bhola",
      "total_cases": 237,
      "total_deaths": 47,
      "verified_deaths": 47,
      "unverified_deaths": 0,
      "total_injuries": 190,
      "verified_injuries": 185,
      "unverified_injuries": 5,
      "lat": 22.0833,
      "lng": 90.65,
      "type": "Multiple Casualties"
    },
    {
      "district": "Bogura",
      "total_cases": 535,
      "total_deaths": 15,
      "verified_deaths": 15,
      "unverified_deaths": 0,
      "total_injuries": 520,
      "verified_injuries": 518,
      "unverified_injuries": 2,
      "lat": 24.85,
      "lng": 89.3667,
      "type": "Multiple Casualties"
    },
    {
      "district": "Brahmanbaria",
      "total_cases": 186,
      "total_deaths": 19,
      "verified_deaths": 19,
      "unverified_deaths": 0,
      "total_injuries": 167,
      "verified_injuries": 150,
      "unverified_injuries": 17,
      "lat": 23.95,
      "lng": 91.1167,
      "type": "Multiple Casualties"
    },
    {
      "district": "Chandpur",
      "total_cases": 308,
      "total_deaths": 33,
      "verified_deaths": 31,
      "unverified_deaths": 2,
      "total_injuries": 275,
      "verified_injuries": 255,
      "unverified_injuries": 20,
      "lat": 23.2333,
      "lng": 90.65,
      "type": "Multiple Casualties"
    },
    {
      "district": "Chapainawabganj",
      "total_cases": 21,
      "total_deaths": 2,
      "verified_deaths": 2,
      "unverified_deaths": 0,
      "total_injuries": 19,
      "verified_injuries": 18,
      "unverified_injuries": 1,
      "lat": 24.5917,
      "lng": 88.2767,
      "type": "Multiple Casualties"
    },
    {
      "district": "Chattogram",
      "total_cases": 514,
      "total_deaths": 8,
      "verified_deaths": 8,
      "unverified_deaths": 0,
      "total_injuries": 506,
      "verified_injuries": 494,
      "unverified_injuries": 12,
      "lat": 22.35,
      "lng": 91.8333,
      "type": "Multiple Casualties"
    },
    {
      "district": "Chuadanga",
      "total_cases": 55,
      "total_deaths": 2,
      "verified_deaths": 2,
      "unverified_deaths": 0,
      "total_injuries": 53,
      "verified_injuries": 50,
      "unverified_injuries": 3,
      "lat": 23.6472,
      "lng": 88.8583,
      "type": "Multiple Casualties"
    },
    {
      "district": "Cox's Bazar",
      "total_cases": 91,
      "total_deaths": 4,
      "verified_deaths": 4,
      "unverified_deaths": 0,
      "total_injuries": 87,
      "verified_injuries": 87,
      "unverified_injuries": 0,
      "lat": 21.4333,
      "lng": 92.0167,
      "type": "Multiple Casualties"
    },
    {
      "district": "Cumilla",
      "total_cases": 492,
      "total_deaths": 41,
      "verified_deaths": 40,
      "unverified_deaths": 1,
      "total_injuries": 451,
      "verified_injuries": 444,
      "unverified_injuries": 7,
      "lat": 23.4667,
      "lng": 91.2,
      "type": "Multiple Casualties"
    },
    {
      "district": "Dhaka",
      "total_cases": 1740,
      "total_deaths": 84,
      "verified_deaths": 84,
      "unverified_deaths": 0,
      "total_injuries": 1656,
      "verified_injuries": 1561,
      "unverified_injuries": 95,
      "lat": 23.7231,
      "lng": 90.4086,
      "type": "Multiple Casualties"
    },
    {
      "district": "Dinajpur",
      "total_cases": 304,
      "total_deaths": 10,
      "verified_deaths": 9,
      "unverified_deaths": 1,
      "total_injuries": 294,
      "verified_injuries": 255,
      "unverified_injuries": 39,
      "lat": 25.625,
      "lng": 88.6333,
      "type": "Multiple Casualties"
    },
    {
      "district": "Faridpur",
      "total_cases": 154,
      "total_deaths": 7,
      "verified_deaths": 7,
      "unverified_deaths": 0,
      "total_injuries": 147,
      "verified_injuries": 147,
      "unverified_injuries": 0,
      "lat": 23.6,
      "lng": 89.8333,
      "type": "Multiple Casualties"
    },
    {
      "district": "Feni",
      "total_cases": 418,
      "total_deaths": 9,
      "verified_deaths": 9,
      "unverified_deaths": 0,
      "total_injuries": 409,
      "verified_injuries": 408,
      "unverified_injuries": 1,
      "lat": 23.0167,
      "lng": 91.4,
      "type": "Multiple Casualties"
    },
    {
      "district": "Gaibandha",
      "total_cases": 229,
      "total_deaths": 6,
      "verified_deaths": 6,
      "unverified_deaths": 0,
      "total_injuries": 223,
      "verified_injuries": 222,
      "unverified_injuries": 1,
      "lat": 25.3167,
      "lng": 89.5333,
      "type": "Multiple Casualties"
    },
    {
      "district": "Gazipur",
      "total_cases": 520,
      "total_deaths": 16,
      "verified_deaths": 16,
      "unverified_deaths": 0,
      "total_injuries": 504,
      "verified_injuries": 504,
      "unverified_injuries": 0,
      "lat": 24.0,
      "lng": 90.4167,
      "type": "Multiple Casualties"
    },
    {
      "district": "Gopalganj",
      "total_cases": 48,
      "total_deaths": 7,
      "verified_deaths": 7,
      "unverified_deaths": 0,
      "total_injuries": 41,
      "verified_injuries": 41,
      "unverified_injuries": 0,
      "lat": 23.0167,
      "lng": 89.8333,
      "type": "Multiple Casualties"
    },
    {
      "district": "Habiganj",
      "total_cases": 148,
      "total_deaths": 15,
      "verified_deaths": 15,
      "unverified_deaths": 0,
      "total_injuries": 133,
      "verified_injuries": 127,
      "unverified_injuries": 6,
      "lat": 24.3667,
      "lng": 91.4167,
      "type": "Multiple Casualties"
    },
    {
      "district": "Jamalpur",
      "total_cases": 119,
      "total_deaths": 17,
      "verified_deaths": 17,
      "unverified_deaths": 0,
      "total_injuries": 102,
      "verified_injuries": 102,
      "unverified_injuries": 0,
      "lat": 24.9167,
      "lng": 89.9333,
      "type": "Multiple Casualties"
    },
    {
      "district": "Jashore",
      "total_cases": 107,
      "total_deaths": 27,
      "verified_deaths": 27,
      "unverified_deaths": 0,
      "total_injuries": 80,
      "verified_injuries": 80,
      "unverified_injuries": 0,
      "lat": 23.1667,
      "lng": 89.2167,
      "type": "Multiple Casualties"
    },
    {
      "district": "Jhalokathi",
      "total_cases": 92,
      "total_deaths": 10,
      "verified_deaths": 10,
      "unverified_deaths": 0,
      "total_injuries": 82,
      "verified_injuries": 82,
      "unverified_injuries": 0,
      "lat": 22.6333,
      "lng": 90.2,
      "type": "Multiple Casualties"
    },
    {
      "district": "Jhenaidah",
      "total_cases": 135,
      "total_deaths": 3,
      "verified_deaths": 3,
      "unverified_deaths": 0,
      "total_injuries": 132,
      "verified_injuries": 129,
      "unverified_injuries": 2,
      "lat": 23.55,
      "lng": 89.1667,
      "type": "Multiple Casualties"
    },
    {
      "district": "Joypurhat",
      "total_cases": 91,
      "total_deaths": 4,
      "verified_deaths": 4,
      "unverified_deaths": 0,
      "total_injuries": 87,
      "verified_injuries": 86,
      "unverified_injuries": 1,
      "lat": 25.1,
      "lng": 89.0,
      "type": "Multiple Casualties"
    },
    {
      "district": "Khagrachari",
      "total_cases": 17,
      "total_deaths": 1,
      "verified_deaths": 1,
      "unverified_deaths": 0,
      "total_injuries": 16,
      "verified_injuries": 16,
      "unverified_injuries": 0,
      "lat": 23.1167,
      "lng": 91.9833,
      "type": "Multiple Casualties"
    },
    {
      "district": "Khulna",
      "total_cases": 85,
      "total_deaths": 5,
      "verified_deaths": 5,
      "unverified_deaths": 0,
      "total_injuries": 80,
      "verified_injuries": 74,
      "unverified_injuries": 6,
      "lat": 22.8167,
      "lng": 89.5667,
      "type": "Multiple Casualties"
    },
    {
      "district": "Kishoreganj",
      "total_cases": 756,
      "total_deaths": 18,
      "verified_deaths": 18,
      "unverified_deaths": 0,
      "total_injuries": 738,
      "verified_injuries": 738,
      "unverified_injuries": 0,
      "lat": 24.4333,
      "lng": 90.7833,
      "type": "Multiple Casualties"
    },
    {
      "district": "Kurigram",
      "total_cases": 143,
      "total_deaths": 9,
      "verified_deaths": 9,
      "unverified_deaths": 0,
      "total_injuries": 134,
      "verified_injuries": 134,
      "unverified_injuries": 0,
      "lat": 25.8167,
      "lng": 89.6333,
      "type": "Multiple Casualties"
    },
    {
      "district": "Kushtia",
      "total_cases": 603,
      "total_deaths": 15,
      "verified_deaths": 15,
      "unverified_deaths": 0,
      "total_injuries": 588,
      "verified_injuries": 588,
      "unverified_injuries": 0,
      "lat": 23.9,
      "lng": 89.1167,
      "type": "Multiple Casualties"
    },
    {
      "district": "Lakshmipur",
      "total_cases": 342,
      "total_deaths": 16,
      "verified_deaths": 16,
      "unverified_deaths": 0,
      "total_injuries": 326,
      "verified_injuries": 326,
      "unverified_injuries": 0,
      "lat": 22.95,
      "lng": 90.8167,
      "type": "Multiple Casualties"
    },
    {
      "district": "Lalmonirhat",
      "total_cases": 68,
      "total_deaths": 10,
      "verified_deaths": 10,
      "unverified_deaths": 0,
      "total_injuries": 58,
      "verified_injuries": 58,
      "unverified_injuries": 0,
      "lat": 25.9833,
      "lng": 89.45,
      "type": "Multiple Casualties"
    },
    {
      "district": "Madaripur",
      "total_cases": 209,
      "total_deaths": 17,
      "verified_deaths": 17,
      "unverified_deaths": 0,
      "total_injuries": 192,
      "verified_injuries": 192,
      "unverified_injuries": 0,
      "lat": 23.1667,
      "lng": 90.2,
      "type": "Multiple Casualties"
    },
    {
      "district": "Magura",
      "total_cases": 306,
      "total_deaths": 10,
      "verified_deaths": 10,
      "unverified_deaths": 0,
      "total_injuries": 296,
      "verified_injuries": 295,
      "unverified_injuries": 1,
      "lat": 23.4833,
      "lng": 89.4167,
      "type": "Multiple Casualties"
    },
    {
      "district": "Manikganj",
      "total_cases": 146,
      "total_deaths": 5,
      "verified_deaths": 5,
      "unverified_deaths": 0,
      "total_injuries": 141,
      "verified_injuries": 137,
      "unverified_injuries": 4,
      "lat": 23.8667,
      "lng": 90.0,
      "type": "Multiple Casualties"
    },
    {
      "district": "Maulvibazar",
      "total_cases": 112,
      "total_deaths": 1,
      "verified_deaths": 0,
      "unverified_deaths": 1,
      "total_injuries": 111,
      "verified_injuries": 101,
      "unverified_injuries": 10,
      "lat": 24.4833,
      "lng": 91.7667,
      "type": "Multiple Casualties"
    },
    {
      "district": "Meherpur",
      "total_cases": 10,
      "total_deaths": 0,
      "verified_deaths": 0,
      "unverified_deaths": 0,
      "total_injuries": 10,
      "verified_injuries": 9,
      "unverified_injuries": 1,
      "lat": 23.7667,
      "lng": 88.6333,
      "type": "Multiple Casualties"
    },
    {
      "district": "Munshiganj",
      "total_cases": 201,
      "total_deaths": 14,
      "verified_deaths": 14,
      "unverified_deaths": 0,
      "total_injuries": 187,
      "verified_injuries": 185,
      "unverified_injuries": 2,
      "lat": 23.55,
      "lng": 90.5333,
      "type": "Multiple Casualties"
    },
    {
      "district": "Mymensingh",
      "total_cases": 421,
      "total_deaths": 42,
      "verified_deaths": 41,
      "unverified_deaths": 1,
      "total_injuries": 379,
      "verified_injuries": 342,
      "unverified_injuries": 37,
      "lat": 24.75,
      "lng": 90.4167,
      "type": "Multiple Casualties"
    },
    {
      "district": "Naogaon",
      "total_cases": 73,
      "total_deaths": 9,
      "verified_deaths": 9,
      "unverified_deaths": 0,
      "total_injuries": 64,
      "verified_injuries": 62,
      "unverified_injuries": 2,
      "lat": 24.8,
      "lng": 88.9333,
      "type": "Multiple Casualties"
    },
    {
      "district": "Narail",
      "total_cases": 68,
      "total_deaths": 2,
      "verified_deaths": 2,
      "unverified_deaths": 0,
      "total_injuries": 66,
      "verified_injuries": 66,
      "unverified_injuries": 0,
      "lat": 23.1833,
      "lng": 89.5167,
      "type": "Multiple Casualties"
    },
    {
      "district": "Narayanganj",
      "total_cases": 281,
      "total_deaths": 23,
      "verified_deaths": 23,
      "unverified_deaths": 0,
      "total_injuries": 258,
      "verified_injuries": 252,
      "unverified_injuries": 6,
      "lat": 23.6167,
      "lng": 90.5,
      "type": "Multiple Casualties"
    },
    {
      "district": "Narsingdi",
      "total_cases": 494,
      "total_deaths": 20,
      "verified_deaths": 20,
      "unverified_deaths": 0,
      "total_injuries": 474,
      "verified_injuries": 453,
      "unverified_injuries": 21,
      "lat": 24.1,
      "lng": 90.75,
      "type": "Multiple Casualties"
    },
    {
      "district": "Natore",
      "total_cases": 110,
      "total_deaths": 8,
      "verified_deaths": 8,
      "unverified_deaths": 0,
      "total_injuries": 102,
      "verified_injuries": 100,
      "unverified_injuries": 2,
      "lat": 24.4167,
      "lng": 89.0,
      "type": "Multiple Casualties"
    },
    {
      "district": "Netrakona",
      "total_cases": 209,
      "total_deaths": 17,
      "verified_deaths": 17,
      "unverified_deaths": 0,
      "total_injuries": 192,
      "verified_injuries": 190,
      "unverified_injuries": 2,
      "lat": 24.8667,
      "lng": 90.7333,
      "type": "Multiple Casualties"
    },
    {
      "district": "Nilphamari",
      "total_cases": 163,
      "total_deaths": 4,
      "verified_deaths": 4,
      "unverified_deaths": 0,
      "total_injuries": 159,
      "verified_injuries": 159,
      "unverified_injuries": 0,
      "lat": 25.9333,
      "lng": 88.9833,
      "type": "Multiple Casualties"
    },
    {
      "district": "Noakhali",
      "total_cases": 242,
      "total_deaths": 27,
      "verified_deaths": 26,
      "unverified_deaths": 1,
      "total_injuries": 215,
      "verified_injuries": 189,
      "unverified_injuries": 26,
      "lat": 22.8333,
      "lng": 91.1,
      "type": "Multiple Casualties"
    },
    {
      "district": "Pabna",
      "total_cases": 123,
      "total_deaths": 6,
      "verified_deaths": 6,
      "unverified_deaths": 0,
      "total_injuries": 117,
      "verified_injuries": 110,
      "unverified_injuries": 7,
      "lat": 24.0,
      "lng": 89.25,
      "type": "Multiple Casualties"
    },
    {
      "district": "Panchagarh",
      "total_cases": 39,
      "total_deaths": 5,
      "verified_deaths": 5,
      "unverified_deaths": 0,
      "total_injuries": 34,
      "verified_injuries": 34,
      "unverified_injuries": 0,
      "lat": 26.3333,
      "lng": 88.55,
      "type": "Multiple Casualties"
    },
    {
      "district": "Patuakhali",
      "total_cases": 206,
      "total_deaths": 25,
      "verified_deaths": 25,
      "unverified_deaths": 0,
      "total_injuries": 181,
      "verified_injuries": 181,
      "unverified_injuries": 0,
      "lat": 22.35,
      "lng": 90.3333,
      "type": "Multiple Casualties"
    },
    {
      "district": "Pirojpur",
      "total_cases": 105,
      "total_deaths": 5,
      "verified_deaths": 5,
      "unverified_deaths": 0,
      "total_injuries": 100,
      "verified_injuries": 99,
      "unverified_injuries": 1,
      "lat": 22.5667,
      "lng": 89.9833,
      "type": "Multiple Casualties"
    },
    {
      "district": "Rajbari",
      "total_cases": 79,
      "total_deaths": 3,
      "verified_deaths": 3,
      "unverified_deaths": 0,
      "total_injuries": 76,
      "verified_injuries": 76,
      "unverified_injuries": 0,
      "lat": 23.75,
      "lng": 89.65,
      "type": "Multiple Casualties"
    },
    {
      "district": "Rajshahi",
      "total_cases": 115,
      "total_deaths": 4,
      "verified_deaths": 4,
      "unverified_deaths": 0,
      "total_injuries": 111,
      "verified_injuries": 110,
      "unverified_injuries": 1,
      "lat": 24.3667,
      "lng": 88.6,
      "type": "Multiple Casualties"
    },
    {
      "district": "Rangamati",
      "total_cases": 12,
      "total_deaths": 0,
      "verified_deaths": 0,
      "unverified_deaths": 0,
      "total_injuries": 12,
      "verified_injuries": 9,
      "unverified_injuries": 3,
      "lat": 22.65,
      "lng": 92.1833,
      "type": "Multiple Casualties"
    },
    {
      "district": "Rangpur",
      "total_cases": 292,
      "total_deaths": 20,
      "verified_deaths": 20,
      "unverified_deaths": 0,
      "total_injuries": 272,
      "verified_injuries": 266,
      "unverified_injuries": 6,
      "lat": 25.75,
      "lng": 89.25,
      "type": "Multiple Casualties"
    },
    {
      "district": "Satkhira",
      "total_cases": 102,
      "total_deaths": 4,
      "verified_deaths": 4,
      "unverified_deaths": 0,
      "total_injuries": 98,
      "verified_injuries": 96,
      "unverified_injuries": 2,
      "lat": 22.7167,
      "lng": 89.0667,
      "type": "Multiple Casualties"
    },
    {
      "district": "Shariatpur",
      "total_cases": 95,
      "total_deaths": 13,
      "verified_deaths": 13,
      "unverified_deaths": 0,
      "total_injuries": 82,
      "verified_injuries": 82,
      "unverified_injuries": 0,
      "lat": 23.25,
      "lng": 90.4167,
      "type": "Multiple Casualties"
    },
    {
      "district": "Sherpur",
      "total_cases": 110,
      "total_deaths": 14,
      "verified_deaths": 14,
      "unverified_deaths": 0,
      "total_injuries": 96,
      "verified_injuries": 91,
      "unverified_injuries": 5,
      "lat": 25.0167,
      "lng": 90.0167,
      "type": "Multiple Casualties"
    },
    {
      "district": "Sirajganj",
      "total_cases": 468,
      "total_deaths": 13,
      "verified_deaths": 13,
      "unverified_deaths": 0,
      "total_injuries": 455,
      "verified_injuries": 415,
      "unverified_injuries": 40,
      "lat": 24.45,
      "lng": 89.7,
      "type": "Multiple Casualties"
    },
    {
      "district": "Sunamganj",
      "total_cases": 271,
      "total_deaths": 3,
      "verified_deaths": 3,
      "unverified_deaths": 0,
      "total_injuries": 268,
      "verified_injuries": 268,
      "unverified_injuries": 0,
      "lat": 25.0667,
      "lng": 91.4,
      "type": "Multiple Casualties"
    },
    {
      "district": "Sylhet",
      "total_cases": 391,
      "total_deaths": 13,
      "verified_deaths": 13,
      "unverified_deaths": 0,
      "total_injuries": 378,
      "verified_injuries": 360,
      "unverified_injuries": 18,
      "lat": 24.8917,
      "lng": 91.8667,
      "type": "Multiple Casualties"
    },
    {
      "district": "Tangail",
      "total_cases": 284,
      "total_deaths": 10,
      "verified_deaths": 10,
      "unverified_deaths": 0,
      "total_injuries": 274,
      "verified_injuries": 274,
      "unverified_injuries": 0,
      "lat": 24.25,
      "lng": 90.1333,
      "type": "Multiple Casualties"
    },
    {
      "district": "Thakurgaon",
      "total_cases": 386,
      "total_deaths": 4,
      "verified_deaths": 4,
      "unverified_deaths": 0,
      "total_injuries": 382,
      "verified_injuries": 375,
      "unverified_injuries": 7,
      "lat": 26.0333,
      "lng": 88.4667,
      "type": "Multiple Casualties"
    }
  ]
}
